{"type": "FeatureCollection",
"crs": { "type": "name", "properties": { "name": "urn:ogc:def:crs:OGC:1.3:CRS84" } },
"features": [{ "type": "Feature", "properties": { "name": "Nachiket Kelkar\n", "descriptio": "Bhagalpur, Bihar: Ganges river dolphin ecology and conservation, wellbeing of ri" }, "geometry": { "type": "Point", "coordinates": [ 87.0337014, 25.2942013, 0.0 ] } },
{ "type": "Feature", "properties": { "name": "RaMBLE: Nitin Rai, Ankila Hiremath, Abi Vanak, Ovee Thorat, Ramya Ravi\n", "descriptio": "Grasslands; Biophysical parameters; Ecology; Pastoralism; charcoal economy, loca" }, "geometry": { "type": "Point", "coordinates": [ 69.4033813, 23.6923197, 0.0 ] } },
{ "type": "Feature", "properties": { "name": "Madhuri Ramesh\n", "descriptio": "Sea turtle conservation; political ecology" }, "geometry": { "type": "Point", "coordinates": [ 86.7947388, 20.5633673, 0.0 ] } },
{ "type": "Feature", "properties": { "name": "Madhuri Ramesh\n", "descriptio": "Sea turtle conservation; political ecology" }, "geometry": { "type": "Point", "coordinates": [ 85.0479126, 19.4199732, 0.0 ] } },
{ "type": "Feature", "properties": { "name": "Ranjeet Kumar Sahni\n", "descriptio": "Kosi region; flood hydrology; livelihoods, Mallah community" }, "geometry": { "type": "Point", "coordinates": [ 86.2646484, 26.0444452, 0.0 ] } },
{ "type": "Feature", "properties": { "name": "Shivani Agarwal\n", "descriptio": "Pench Tiger Reserve; Tadoba TR; institutions, remote sensing, forest fragmentati" }, "geometry": { "type": "Point", "coordinates": [ 79.2663574, 20.6276433, 0.0 ] } },
{ "type": "Feature", "properties": { "name": "Shruthi J. \n", "descriptio": "Bangalore slums; socio-economics" }, "geometry": { "type": "Point", "coordinates": [ 77.4797058, 12.9403221, 0.0 ] } },
{ "type": "Feature", "properties": { "name": "Poorna Balaji\n", "descriptio": "Political ecology; forest diversion; mining; conservation" }, "geometry": { "type": "Point", "coordinates": [ 83.4686279, 19.2152094, 0.0 ] } },
{ "type": "Feature", "properties": { "name": "Aniruddha Marathe\n", "descriptio": "Ant community ecology" }, "geometry": { "type": "Point", "coordinates": [ 92.194519, 27.3766454, 0.0 ] } },
{ "type": "Feature", "properties": { "name": "Manish Kumar\n", "descriptio": "Ecohydrology; springs, ecosystem services; climate change" }, "geometry": { "type": "Point", "coordinates": [ 88.6431885, 27.6786636, 0.0 ] } },
{ "type": "Feature", "properties": { "name": "Harisha R.P.\n", "descriptio": "Male Mahadeshwara CCC; Lantana centers; biodiversity" }, "geometry": { "type": "Point", "coordinates": [ 77.5909405, 12.0822807, 0.0 ] } },
{ "type": "Feature", "properties": { "name": "Urbashi Pradhan\n", "descriptio": "Orange orchards, pollination services" }, "geometry": { "type": "Point", "coordinates": [ 88.5662842, 27.4936541, 0.0 ] } },
{ "type": "Feature", "properties": { "name": "Annesha Chowdhury\n", "descriptio": "Tea landscapes; Darjeeling; Biodiversity; Ecosystem services; Resilience" }, "geometry": { "type": "Point", "coordinates": [ 88.3465576, 27.1569205, 0.0 ] } },
{ "type": "Feature", "properties": { "name": "Dushyant Sharma; Arpita Nehra\n", "descriptio": "Urban water issues" }, "geometry": { "type": "Point", "coordinates": [ 77.5305176, 12.8653597, 0.0 ] } },
{ "type": "Feature", "properties": { "name": "Vidyadhar Atkore\n", "descriptio": "Freshwater fishes; regulated rivers; community ecology; biodiversity" }, "geometry": { "type": "Point", "coordinates": [ 74.264831500000014, 15.2841851, 0.0 ] } },
{ "type": "Feature", "properties": { "name": "Sahithi Sanaka\n", "descriptio": "Changing agrarian relations; political production of social identities; protecte" }, "geometry": { "type": "Point", "coordinates": [ 78.8818359, 16.4255475, 0.0 ] } },
{ "type": "Feature", "properties": { "name": "Vikram Aditya; Prashanth MB & team\n", "descriptio": "Biodiversity; mammals; birds; land-use change; threats; conservation education" }, "geometry": { "type": "Point", "coordinates": [ 81.5625, 17.4345106, 0.0 ] } },
{ "type": "Feature", "properties": { "name": "Venkat Ramanujam", "descriptio": "Baiga and Gond tribes; tendu leaf trade; anthropology" }, "geometry": { "type": "Point", "coordinates": [ 80.8703613, 23.6696819, 0.0 ] } },
{ "type": "Feature", "properties": { "name": "Rashmi Mahajan\n", "descriptio": "Water resource management; irrigation tanks; participation" }, "geometry": { "type": "Point", "coordinates": [ 80.057373, 21.3303151, 0.0 ] } },
{ "type": "Feature", "properties": { "name": "Anuja Date\n", "descriptio": "Forest rights; Awareness; Gadchiroli" }, "geometry": { "type": "Point", "coordinates": [ 80.167236300000013, 19.9423692, 0.0 ] } },
{ "type": "Feature", "properties": { "name": "Sachin MH\n", "descriptio": "India Biodiversity Portal" }, "geometry": { "type": "Point", "coordinates": [ 77.6376343, 13.0821536, 0.0 ] } },
{ "type": "Feature", "properties": { "name": "Rahul Muralidharan\n", "descriptio": "Fisheries; dolphins; neoliberalism; conservation" }, "geometry": { "type": "Point", "coordinates": [ 79.4421387, 9.8065036, 0.0 ] } },
{ "type": "Feature", "properties": { "name": "Soumyajit Bhar\n", "descriptio": "Conspicuous consumption; climate change" }, "geometry": { "type": "Point", "coordinates": [ 88.3520508, 22.5632932, 0.0 ] } },
{ "type": "Feature", "properties": { "name": "Chandrima Home; Abi T. Vanak\n", "descriptio": "Human-dog conflict; impact of free-ranging dogs on wildlife" }, "geometry": { "type": "Point", "coordinates": [ 78.0111694, 32.261588, 0.0 ] } },
{ "type": "Feature", "properties": { "name": "Abi Tamim Vanak; Anjan Katna", "descriptio": "Baramati; Grassland savannas, wildlife; canid ecology; diseases; conservation" }, "geometry": { "type": "Point", "coordinates": [ 74.5714188, 18.192499, 0.0 ] } },
{ "type": "Feature", "properties": { "name": "Paramesh M.\n", "descriptio": "Corridor restoration; Population dynamics of NTFPs; Forest regeneration" }, "geometry": { "type": "Point", "coordinates": [ 77.1748352, 11.9943234, 0.0 ] } },
{ "type": "Feature", "properties": { "name": "Madhura Niphadkar\n", "descriptio": "Ecology of Lantana; RS-GIS" }, "geometry": { "type": "Point", "coordinates": [ 77.1755219, 11.9681276, 0.0 ] } },
{ "type": "Feature", "properties": { "name": "Allwin Jesudasan; R. Suryanarayanan; S. Saravanan; M. Mathivanan\n", "descriptio": "Farmer adaptation; water shortage; biodiversity; herpetofauna; phenology monitor" }, "geometry": { "type": "Point", "coordinates": [ 77.5675964, 8.4941045, 0.0 ] } },
{ "type": "Feature", "properties": { "name": "Jyoti Nair\n", "descriptio": "Vulnerability; Adaptation; Semi-arid regions; Bundelkhand" }, "geometry": { "type": "Point", "coordinates": [ 81.5185547, 24.7667845, 0.0 ] } },
{ "type": "Feature", "properties": { "name": "Kadambari Deshpande\n", "descriptio": "Bats; Land-use & Land-cover change; Rubber plantations; Ecosystem services" }, "geometry": { "type": "Point", "coordinates": [ 77.1762085, 8.9094935, 0.0 ] } },
{ "type": "Feature", "properties": { "name": "Sony R.K.\n", "descriptio": "Environmentalism & Subjectivity; Environmental Movements" }, "geometry": { "type": "Point", "coordinates": [ 75.385437, 12.0339482, 0.0 ] } },
{ "type": "Feature", "properties": { "name": "Milind Bunyan, R Venkitachalam, Divya Solomon, Srinivas Badiger, Jagdish Krishna", "descriptio": "Climate change; ecosystem services; climate variability; adaptation; hydrology" }, "geometry": { "type": "Point", "coordinates": [ 76.9647217, 11.5661438, 0.0 ] } },
{ "type": "Feature", "properties": { "name": "Soumya K.V.\n", "descriptio": "Cauvery Wildlife Sanctuary" }, "geometry": { "type": "Point", "coordinates": [ 77.6142875, 11.9197557, 0.0 ] } },
{ "type": "Feature", "properties": { "name": "Anoop N.R.\n", "descriptio": "Elephant-human conflict; Wayanad WLS" }, "geometry": { "type": "Point", "coordinates": [ 75.9017944, 11.8700388, 0.0 ] } },
{ "type": "Feature", "properties": { "name": "Chayanika Das\n", "descriptio": "Grassland bird diversity; Tuticorin district" }, "geometry": { "type": "Point", "coordinates": [ 77.8903239, 8.5973127, 0.0 ] } },
{ "type": "Feature", "properties": { "name": "Deepthi N.\n", "descriptio": "Agrarian change; livelihoods; wastewater management" }, "geometry": { "type": "Point", "coordinates": [ 77.5442505, 13.02329, 0.0 ] } },
{ "type": "Feature", "properties": { "name": "Praveen Thomas, G. Abhishek, Abhilash P.A., Vijesh K.K.\n", "descriptio": "Vembanad Bioblitz Program in schools" }, "geometry": { "type": "Point", "coordinates": [ 76.3412476, 9.8876871, 0.0 ] } },
{ "type": "Feature", "properties": { "name": "Seena N. Karimbumkara\n", "descriptio": "Dung-beetles; Shenduruney WLS" }, "geometry": { "type": "Point", "coordinates": [ 77.2036743, 8.90678, 0.0 ] } },
{ "type": "Feature", "properties": { "name": "Anirban Datta-Roy", "descriptio": "Hunting; mammals; Arunachal Pradesh" }, "geometry": { "type": "Point", "coordinates": [ 94.893718600000014, 28.7520301, 0.0 ] } },
{ "type": "Feature", "properties": { "name": "Bejoy Thomas\n", "descriptio": "Poverty, socioeconomics" }, "geometry": { "type": "Point", "coordinates": [ 76.3814163, 9.4609149, 0.0 ] } },
{ "type": "Feature", "properties": { "name": "Ganesan Balachander\n", "descriptio": "Nilgiris, Environmental Economics" }, "geometry": { "type": "Point", "coordinates": [ 76.7422485, 11.345411, 0.0 ] } },
{ "type": "Feature", "properties": { "name": "Rajkamal Goswami\n", "descriptio": "Protected Areas, Community Forests, Biodiversity, Animal Abundance" }, "geometry": { "type": "Point", "coordinates": [ 92.2247314, 25.3192011, 0.0 ] } },
{ "type": "Feature", "properties": { "name": "Shekhar Bhujel\n", "descriptio": "Hornbills, Wild fruits" }, "geometry": { "type": "Point", "coordinates": [ 88.4399414, 27.0150903, 0.0 ] } }
]}
